City,Country,Lat,Lng,Max Temp,Humidity,Cloudiness,Wind Speed,Date
Faanui,PF,-16.4833,-151.75,80.22,75,15,16.75,1651332108
Ulagan,RU,50.6321,87.9563,49.87,53,100,3.2,1651332108
Ubari,LY,26.5921,12.7805,99.66,5,0,15.35,1651332109
Hilo,US,19.7297,-155.09,73.27,97,75,4.61,1651331924
Talnakh,RU,69.4865,88.3972,13.95,95,90,6.89,1651332109
Barrow,US,71.2906,-156.7887,10.42,85,40,10.36,1651332002
Busselton,AU,-33.65,115.3333,56.7,82,0,5.82,1651332110
Ushuaia,AR,-54.8,-68.3,40.62,81,0,5.75,1651332011
Tiksi,RU,71.6872,128.8694,33.85,82,86,19.64,1651332111
Rikitea,PF,-23.1203,-134.9692,75.7,76,48,13.18,1651332111
Bikramganj,IN,25.2,84.25,84.61,48,33,28.1,1651332112
Cidreira,BR,-30.1811,-50.2056,66.58,64,50,12.01,1651332112
Ukiah,US,39.1502,-123.2078,59.38,83,0,0.0,1651331420
Bluff,NZ,-46.6,168.3333,57.22,73,84,19.95,1651332113
Arraial do Cabo,BR,-22.9661,-42.0278,76.96,78,75,9.22,1651332113
Torbay,CA,47.6666,-52.7314,41.29,95,100,6.91,1651331909
Banjar,ID,-8.19,114.9675,77.52,87,38,4.85,1651332114
New Norfolk,AU,-42.7826,147.0587,55.92,56,100,9.98,1651332114
Sisimiut,GL,66.9395,-53.6735,23.25,48,0,6.17,1651332115
Bundaberg,AU,-24.85,152.35,66.49,99,49,6.91,1651332115
Kisanga,TZ,-7.4362,37.7034,78.69,77,54,1.77,1651332116
Hobart,AU,-42.8794,147.3294,56.26,88,75,11.5,1651332018
Khatanga,RU,71.9667,102.5,10.44,97,46,5.46,1651332116
Rodolfo Sánchez Taboada,MX,31.7167,-116.5667,59.11,87,72,2.46,1651332117
Honiara,SB,-9.4333,159.95,78.21,86,94,0.72,1651332117
Puerto Ayora,EC,-0.7393,-90.3518,76.96,84,36,10.2,1651332118
Zhalantun,CN,48.0,122.7167,36.01,41,14,3.71,1651332118
Mataura,NZ,-46.1927,168.8643,48.16,90,79,4.21,1651332118
Gore,NZ,-46.1028,168.9436,47.1,91,83,3.44,1651332119
Atuona,PF,-9.8,-139.0333,77.95,77,54,13.58,1651332059
Hofn,IS,64.2539,-15.2082,47.53,75,10,11.59,1651331286
Dikson,RU,73.5069,80.5464,17.47,93,100,17.36,1651332002
Tuktoyaktuk,CA,69.4541,-133.0374,23.0,86,20,6.91,1651332120
Bethel,US,41.3712,-73.414,58.19,35,0,10.36,1651331973
Ilulissat,GL,69.2167,-51.1,23.02,42,20,9.22,1651331552
Saint Anthony,US,45.0205,-93.218,50.49,92,100,13.8,1651332120
Ponta do Sol,PT,32.6667,-17.1,77.72,53,0,0.96,1651332121
Amānganj,IN,24.4333,80.0333,99.18,11,17,10.2,1651332121
Qaqortoq,GL,60.7167,-46.0333,43.66,69,50,6.71,1651332122
Upernavik,GL,72.7868,-56.1549,19.02,82,100,15.66,1651332122
Nome,US,64.5011,-165.4064,41.07,61,100,12.66,1651332123
Iqaluit,CA,63.7506,-68.5145,22.73,73,100,10.36,1651332123
Butaritari,KI,3.0707,172.7902,80.62,82,90,12.03,1651332124
Longyearbyen,SJ,78.2186,15.6401,15.64,53,0,3.44,1651332124
Saskylakh,RU,71.9167,114.0833,15.22,92,100,16.89,1651332125
Cape Town,ZA,-33.9258,18.4232,66.27,65,0,12.66,1651332064
Mānikganj,BD,23.8553,90.0125,87.78,89,77,16.53,1651332125
Muros,ES,42.7762,-9.0603,78.67,61,7,5.03,1651332126
Lengshuijiang,CN,27.6881,111.4294,55.33,92,100,3.56,1651332126
Jamestown,US,42.097,-79.2353,57.94,29,0,6.91,1651332127
Dvorichna,UA,49.8496,37.6857,57.09,42,43,6.67,1651332127
Albany,US,42.6001,-73.9662,54.88,32,2,1.99,1651332088
Wattegama,LK,6.7989,81.4808,78.37,89,53,1.28,1651332024
Pevek,RU,69.7008,170.3133,-5.71,100,96,0.98,1651332128
Leningradskiy,RU,69.3833,178.4167,3.58,98,96,5.99,1651332129
George Town,MY,5.4112,100.3354,84.15,87,20,3.44,1651332129
Fort Nelson,CA,58.8053,-122.7002,29.79,74,20,0.0,1651332130
Okhotsk,RU,59.3833,143.3,32.65,92,58,3.22,1651332130
Port Alfred,ZA,-33.5906,26.891,65.17,67,2,5.99,1651332131
Lüderitz,NA,-26.6481,15.1594,67.46,52,0,25.28,1651332131
Avarua,CK,-21.2078,-159.775,78.85,83,20,4.61,1651332131
Saint-Philippe,RE,-21.3585,55.7679,78.39,79,45,11.18,1651332132
Mar del Plata,AR,-38.0023,-57.5575,55.42,54,0,11.5,1651332132
Cabo San Lucas,MX,22.8909,-109.9124,77.5,45,0,2.3,1651332133
Geraldton,AU,-28.7667,114.6,59.41,88,0,9.22,1651332133
Khovd,MN,48.0056,91.6419,54.41,17,55,0.92,1651332134
Merauke,ID,-8.4667,140.3333,79.92,86,49,14.27,1651332134
Klaksvík,FO,62.2266,-6.589,49.12,83,98,8.23,1651332067
Port Elizabeth,ZA,-33.918,25.5701,67.1,74,0,19.57,1651331970
Guipavas,FR,48.4352,-4.3972,57.25,62,0,13.8,1651332135
Atar,MR,20.5169,-13.0499,93.25,14,0,0.0,1651332136
Honningsvåg,NO,70.9821,25.9704,29.95,69,75,8.05,1651332136
Hasaki,JP,35.7333,140.8333,46.8,54,47,11.54,1651332137
Yulara,AU,-25.2406,130.9889,63.48,59,100,17.11,1651332138
Yellowknife,CA,62.456,-114.3525,23.56,63,0,8.05,1651332139
Shīeli,KZ,44.1667,66.75,78.62,17,90,6.33,1651332139
Nikolskoye,RU,59.7035,30.7861,46.29,44,92,7.94,1651332139
Souillac,MU,-20.5167,57.5167,77.38,78,40,6.91,1651332140
Mwinilunga,ZM,-11.7358,24.4293,70.61,69,90,4.34,1651332140
Adrar,MR,20.5022,-10.0711,94.37,7,0,7.11,1651332141
Carutapera,BR,-1.195,-46.02,81.27,84,63,5.48,1651332141
Pinega,RU,64.7001,43.3936,33.55,65,98,8.08,1651332142
Saint George,US,37.1041,-113.5841,63.79,22,0,3.0,1651332142
Punta Arenas,CL,-53.15,-70.9167,41.11,81,20,4.61,1651332143
Adelaide,AU,-34.9333,138.6,62.08,75,40,6.91,1651331957
Miquelon,PM,47.0975,-56.3814,44.6,90,100,5.75,1651332143
Vila Velha,BR,-20.3297,-40.2925,85.95,70,40,9.22,1651331846
Kavaratti,IN,10.5669,72.642,85.93,72,99,11.23,1651332144
Kaitangata,NZ,-46.2817,169.8464,49.23,88,22,4.76,1651332144
Verkhnetulomskiy,RU,68.6073,31.7962,30.33,67,97,9.86,1651332145
São Filipe,CV,14.8961,-24.4956,75.24,67,94,11.65,1651331985
Vaini,TO,-21.2,-175.2,75.36,100,100,6.91,1651332145
Homer,US,59.6425,-151.5483,42.69,76,100,19.57,1651332146
Battle Creek,US,42.3212,-85.1797,55.72,35,100,14.97,1651332146
Mingshui,CN,36.7167,117.5,53.8,19,100,8.59,1651332147
Port Hardy,CA,50.6996,-127.4199,50.0,81,75,12.66,1651332147
Huallanca,PE,-9.8993,-76.9417,51.82,62,90,6.55,1651332148
Pringsewu,ID,-5.3582,104.9744,75.27,97,100,3.67,1651332148
Carnarvon,AU,-24.8667,113.6333,68.07,68,40,9.22,1651332149
Tasiilaq,GL,65.6145,-37.6368,44.76,42,70,14.36,1651332149
Los Llanos de Aridane,ES,28.6585,-17.9182,69.55,73,0,13.8,1651331880
Kiama,AU,-34.6833,150.8667,59.0,71,43,5.01,1651332150
Pisco,PE,-13.7,-76.2167,70.02,77,54,5.75,1651332150
Crossville,US,35.949,-85.0269,72.23,56,0,8.01,1651332150
Kushnarenkovo,RU,55.105,55.3508,48.34,43,18,2.55,1651332151
Dul'durga,RU,50.6761,113.5931,40.37,96,100,2.21,1651332151
Taltal,CL,-25.4,-70.4833,66.61,69,8,6.85,1651332152
Linguère,SN,15.3953,-15.1193,107.82,20,0,9.22,1651332152
Hong Kong,HK,22.2855,114.1577,79.18,86,100,11.99,1651332032
Baykit,RU,61.67,96.37,34.45,91,98,3.56,1651332153
Hobyo,SO,5.3505,48.5268,85.59,69,62,10.6,1651332153
Oranjemund,NA,-28.55,16.4333,61.12,71,0,19.71,1651332154
Krabi,TH,8.0726,98.9105,79.0,100,20,4.61,1651332095
Hithadhoo,MV,-0.6,73.0833,85.77,69,71,16.17,1651332081
Shenjiamen,CN,29.9576,122.298,55.53,79,100,10.58,1651332154
Esperance,AU,-33.8667,121.9,57.04,78,0,8.05,1651332155
Alofi,NU,-19.0595,-169.9187,75.09,94,98,3.44,1651332155
Te Anau,NZ,-45.4167,167.7167,56.57,77,99,9.98,1651332156
Ribeira Grande,PT,38.5167,-28.7,66.6,82,75,11.5,1651332156
Clyde River,CA,70.4692,-68.5914,14.23,79,100,3.44,1651332157
Airai,TL,-8.9266,125.4092,60.26,90,91,3.13,1651332157
Naze,JP,28.3667,129.4833,65.32,77,45,7.99,1651331990
Fairbanks,US,64.8378,-147.7164,36.61,76,0,5.75,1651332057
Constitución,CL,-35.3333,-72.4167,58.15,44,0,6.17,1651332158
Hermanus,ZA,-34.4187,19.2345,63.81,74,52,7.52,1651331913
Great Yarmouth,GB,52.6083,1.7305,60.42,68,47,9.55,1651332159
Batemans Bay,AU,-35.7167,150.1833,60.1,78,81,3.76,1651332159
Lubango,AO,-14.9172,13.4925,75.88,37,28,5.03,1651332159
Machilipatnam,IN,16.1667,81.1333,85.03,76,0,13.29,1651331881
Husavik,IS,66.0449,-17.3389,52.41,49,70,3.11,1651332160
Nizhniy Odes,RU,63.6445,54.856,31.59,83,100,1.61,1651332160
Aasiaat,GL,68.7098,-52.8699,18.19,69,2,12.48,1651332161
São José da Coroa Grande,BR,-8.8978,-35.1478,82.29,68,97,9.51,1651332161
Eureka,US,40.8021,-124.1637,54.36,78,100,5.01,1651332162
Malinovskiy,RU,61.1953,62.8397,37.42,55,13,5.84,1651332162
Makakilo City,US,21.3469,-158.0858,73.72,74,0,19.57,1651332163
Bambous Virieux,MU,-20.3428,57.7575,77.25,78,40,6.91,1651332163
Great Falls,US,47.5002,-111.3008,48.6,69,0,6.91,1651332163
Anadyr,RU,64.75,177.4833,28.9,86,40,2.24,1651332164
Chui,UY,-33.6971,-53.4616,61.36,54,56,3.38,1651332164
Kaeo,NZ,-35.1,173.7833,55.33,96,11,6.31,1651332165
Lagoa,PT,39.05,-27.9833,61.16,85,3,12.8,1651332165
Māngrol,IN,21.1167,70.1167,83.98,81,0,8.72,1651332166
Sinnamary,GF,5.3833,-52.95,83.14,67,83,12.28,1651332166
Mackay,AU,-21.15,149.2,68.68,100,5,6.91,1651332164
Andra,RU,62.5147,65.8878,33.6,78,10,6.02,1651332167
Sitka,US,57.0531,-135.33,40.89,75,0,0.0,1651332066
Broken Hill,AU,-31.95,141.4333,53.31,82,0,5.75,1651332167
Thompson,CA,55.7435,-97.8558,35.76,75,75,10.36,1651331988
Mariinsk,RU,56.2139,87.7472,60.96,50,55,6.55,1651332168
Wanning,CN,18.8003,110.3967,76.46,92,98,5.48,1651332168
Kulhudhuffushi,MV,6.6221,73.07,86.2,72,100,11.27,1651332169
Paamiut,GL,61.994,-49.6678,31.89,89,100,17.05,1651332169
Ponta Delgada,PT,37.7333,-25.6667,66.92,88,40,10.36,1651332170
Lebu,CL,-37.6167,-73.65,52.7,60,0,12.55,1651332170
Opuwo,NA,-18.0607,13.84,81.45,32,64,3.96,1651332170
Pemangkat,ID,1.1667,108.9667,82.35,72,100,2.46,1651332171
Bredasdorp,ZA,-34.5322,20.0403,65.86,52,16,11.72,1651332171
Kapaa,US,22.0752,-159.319,73.11,84,20,14.97,1651332172
Provideniya,RU,64.3833,-173.3,28.0,93,100,14.88,1651331997
Nanortalik,GL,60.1432,-45.2371,39.07,84,83,4.03,1651332172
Beringovskiy,RU,63.05,179.3167,24.89,96,100,13.44,1651332173
Shōbu,JP,36.0667,139.6,56.34,49,83,10.22,1651332173
Haines Junction,CA,60.7522,-137.5108,31.95,80,82,1.14,1651332174
Eyl,SO,7.9803,49.8164,85.24,71,60,11.72,1651332174
Ammon,US,43.4696,-111.9666,44.35,62,0,3.44,1651332174
Qasigiannguit,GL,68.8193,-51.1922,23.25,61,1,8.34,1651332175
Château-Gontier,FR,47.8333,-0.7,64.56,58,59,12.21,1651332175
Pīpri,IN,19.8,75.5333,95.65,14,4,21.21,1651332176
Katsuura,JP,35.1333,140.3,52.95,66,41,8.66,1651332176
Tromsø,NO,69.6496,18.957,36.37,80,75,5.75,1651332177
Miracema do Tocantins,BR,-9.5618,-48.3967,87.62,49,97,6.8,1651332177
Gamba,GA,-2.65,10.0,82.02,70,100,2.68,1651332178
Panama City,PA,8.9936,-79.5197,86.38,76,40,9.22,1651332041
Omboué,GA,-1.5746,9.2618,87.75,57,100,2.84,1651332178
Grand Gaube,MU,-20.0064,57.6608,77.4,75,33,1.99,1651332179
Caravelas,BR,-17.7125,-39.2481,83.5,57,6,7.4,1651332179
East London,ZA,-33.0153,27.9116,67.14,68,0,17.27,1651332179
Cravo Norte,CO,6.3017,-70.2041,73.89,93,100,7.27,1651332180
Aykhal,RU,66.0,111.5,20.48,94,100,29.8,1651332180
Moussoro,TD,13.6408,16.4901,107.42,13,100,2.93,1651332181
Kruisfontein,ZA,-34.0033,24.7314,63.88,66,0,16.28,1651332181
Bereda,ES,43.2686,-7.5406,78.15,46,17,5.39,1651332182
Mahébourg,MU,-20.4081,57.7,77.29,78,40,6.91,1651332182
Lavrentiya,RU,65.5833,-171.0,23.45,89,100,10.18,1651332149
Inzhavino,RU,52.3185,42.4937,50.11,59,87,10.45,1651332183
Río Gallegos,AR,-51.6226,-69.2181,39.25,52,20,3.44,1651332183
Gornopravdinsk,RU,60.05,69.9,34.3,61,75,1.99,1651332184
Kavieng,PG,-2.5744,150.7967,82.02,73,97,1.72,1651332084
Westport,US,41.1415,-73.3579,59.31,29,0,10.36,1651332184
Belmonte,BR,-15.8631,-38.8828,80.73,68,19,5.44,1651332185
Qaanaaq,GL,77.484,-69.3632,18.18,77,100,8.55,1651332185
Abu Dhabi,AE,24.4667,54.3667,86.11,49,0,9.22,1651332186
Brookings,US,44.3114,-96.7984,51.46,97,100,10.36,1651332054
La Ronge,CA,55.1001,-105.2842,34.05,86,100,8.05,1651332186
Lensk,RU,60.7253,114.9278,36.5,99,100,6.31,1651332187
Luwuk,ID,-0.9516,122.7875,78.19,88,100,1.9,1651332187
Collie,AU,-33.3667,116.15,51.03,93,0,2.98,1651332188
Kirakira,SB,-10.4544,161.9205,79.93,81,100,0.58,1651332067
Buenos Aires,AR,-34.6132,-58.3772,57.09,58,75,8.05,1651331959
Safi,MA,32.2994,-9.2372,67.82,67,100,16.2,1651332188
Kahului,US,20.8947,-156.47,73.85,79,20,14.97,1651332028
Shingū,JP,33.7333,135.9833,59.13,87,100,9.93,1651332189
Puerto Escondido,MX,15.85,-97.0667,85.08,59,62,3.89,1651332189
Mujiayingzi,CN,42.1167,118.7833,44.64,21,19,8.88,1651332190
Ancud,CL,-41.8697,-73.8203,48.79,72,24,3.2,1651332190
Chatham,GB,51.3789,0.5279,64.36,50,78,4.41,1651332191
Cherskiy,RU,68.75,161.3,-6.14,100,79,4.18,1651332191
Turaif,SA,31.6725,38.6637,91.65,14,17,25.32,1651332192
Severo-Yeniseyskiy,RU,60.3725,93.0408,32.13,99,100,2.13,1651332192
San Fernando del Valle de Catamarca,AR,-28.4696,-65.7852,68.58,58,21,4.0,1651332019
Calamba,PH,14.2117,121.1653,84.15,87,100,8.52,1651332193
Latung,PH,5.5,120.8833,83.14,76,100,3.15,1651332193
Koumac,NC,-20.5667,164.2833,73.24,83,24,4.83,1651332194
Namatanai,PG,-3.6667,152.4333,79.48,79,100,1.81,1651332194
Bandarbeyla,SO,9.4942,50.8122,84.99,72,11,10.33,1651332195
Kidal,ML,18.4411,1.4078,102.45,8,89,15.3,1651332195
San Patricio,US,28.017,-97.5169,82.35,64,5,12.33,1651331985
Adwa,ET,14.1646,38.8955,81.52,28,29,13.69,1651332196
Yar-Sale,RU,66.8333,70.8333,18.77,86,66,8.25,1651332196
Chernyshevskiy,RU,63.0128,112.4714,34.48,91,98,9.37,1651332197
Kasongo-Lunda,CD,-6.4667,16.8167,79.05,84,100,0.85,1651332197
Sayyan,YE,15.1718,44.3244,67.39,41,84,8.32,1651332198
Taoudenni,ML,22.6783,-3.9836,94.39,10,0,8.3,1651332198
Ferreira do Alentejo,PT,38.05,-8.0333,80.19,32,20,2.3,1651332199
Diego de Almagro,CL,-26.3667,-70.05,72.9,28,0,4.88,1651332199
Ulaangom,MN,49.9811,92.0667,52.86,30,91,0.87,1651332200
Tuatapere,NZ,-46.1333,167.6833,55.74,79,100,8.48,1651332200
Itupiranga,BR,-5.1347,-49.3267,88.12,56,42,0.43,1651332201
Willowmore,ZA,-33.2926,23.4895,62.22,36,0,8.97,1651332201
Rognan,NO,67.0953,15.3878,40.75,58,100,5.08,1651332201
Malokakhovka,UA,46.7814,33.4479,55.58,65,68,13.42,1651332202
Waipawa,NZ,-41.4122,175.5153,44.76,87,0,6.02,1651332202
Boyolangu,ID,-8.1181,111.8935,76.37,91,100,2.26,1651332203
Baza,ES,37.4907,-2.7726,71.58,31,100,4.0,1651332203
Buraidah,SA,26.326,43.975,91.85,20,0,0.11,1651332162
Severo-Kuril'sk,RU,50.6789,156.125,33.96,82,92,16.98,1651332204
Mafra,BR,-26.1114,-49.8053,63.52,77,99,4.09,1651332204
Coruripe,BR,-10.1256,-36.1756,81.52,69,94,9.24,1651332205
Mossamedes,AO,-15.1961,12.1522,77.4,73,8,9.98,1651332181
Nabire,ID,-3.3667,135.4833,76.57,92,100,3.0,1651332206
Menongue,AO,-14.6585,17.691,77.54,37,33,6.98,1651332206
Manokwari,ID,-0.8667,134.0833,79.27,81,100,4.5,1651332206
Bathsheba,BB,13.2167,-59.5167,84.81,70,20,18.41,1651332207
Vestmanna,FO,62.1564,-7.1664,47.32,76,100,10.36,1651332207
Garden City,US,42.3256,-83.331,55.35,44,100,11.5,1651332208
Wana,PK,32.2989,69.5725,82.27,19,0,4.83,1651332209
Camacha,PT,33.0833,-16.3333,65.62,68,40,13.8,1651332210
Talcahuano,CL,-36.7167,-73.1167,49.68,71,0,6.91,1651332210
Soyo,AO,-6.1349,12.3689,82.96,70,97,6.06,1651332211
Piaçabuçu,BR,-10.4056,-36.4344,82.89,64,98,9.28,1651332211
Nouadhibou,MR,20.931,-17.0347,73.38,60,100,16.11,1651332212
Norman Wells,CA,65.282,-126.8329,35.64,64,20,8.05,1651332212
Bengkulu,ID,-3.8004,102.2655,78.08,89,100,4.54,1651332213
Kununurra,AU,-15.7667,128.7333,82.38,78,100,4.61,1651332213
Le Port,RE,-20.9373,55.2919,78.8,68,43,5.53,1651332214
Sawākin,SD,19.1059,37.3321,87.51,63,2,6.71,1651332214
Nemuro,JP,43.3236,145.575,37.0,64,1,9.66,1651332214
Aklavik,CA,68.2191,-135.0107,30.2,80,20,5.75,1651332215
Chernyshevsk,RU,52.5243,117.0174,38.98,31,94,0.83,1651332215
Bonavista,CA,48.6499,-53.1147,37.15,94,100,5.61,1651332216
Saint Paul Harbor,US,57.79,-152.4072,40.51,87,100,29.93,1651332216
Esso,RU,55.9333,158.7,14.67,91,6,3.65,1651332217
Fukuechō,JP,32.6881,128.8419,59.25,67,100,15.66,1651332217
Manyoni,TZ,-5.7467,34.8382,74.64,56,70,4.56,1651332218
Armenia,AM,40.0,45.0,55.51,63,100,1.41,1651332218
Cabo Rojo,PR,18.0866,-67.1457,80.26,83,100,1.99,1651332219
North Platte,US,41.1239,-100.7654,49.24,66,100,38.01,1651332219
Gogrial,SS,8.5332,28.1004,98.64,24,100,6.53,1651332220
Bintulu,MY,3.1667,113.0333,77.41,94,20,3.44,1651332220
Portland,US,45.5234,-122.6762,53.94,90,75,5.01,1651332023
Rocha,UY,-34.4833,-54.3333,59.27,55,100,4.23,1651332221
Coquimbo,CL,-29.9533,-71.3436,60.53,72,20,9.22,1651332221
Meulaboh,ID,4.1363,96.1285,81.14,79,100,0.69,1651332221
Sibu,MY,2.3,111.8167,79.11,94,40,3.44,1651332222
Fare,PF,-16.7,-151.0167,80.13,74,4,18.01,1651332222
Road Town,VG,18.4167,-64.6167,78.89,89,75,9.22,1651332223
Aden,YE,12.7794,45.0367,84.96,76,2,9.98,1651332130
Dingle,PH,10.9995,122.6711,78.19,82,93,5.82,1651332223
Ilo,PE,-17.6394,-71.3375,67.06,73,0,8.05,1651332224
Villarrica,PY,-25.75,-56.4333,71.83,91,92,2.93,1651332224
Castro,BR,-24.7911,-50.0119,62.85,83,99,7.54,1651332225
Trairi,BR,-3.2778,-39.2689,83.34,74,29,9.01,1651332225
Isangel,VU,-19.55,169.2667,77.4,88,100,15.12,1651332226
Kasempa,ZM,-13.4584,25.8338,72.28,62,14,4.76,1651332226
Araouane,ML,18.9048,-3.5265,101.28,5,1,12.75,1651332226
Abu Kamal,SY,34.4506,40.9171,88.3,22,80,22.3,1651332227
Aktash,RU,50.3,87.7333,39.52,42,100,5.03,1651332227
Asău,RO,46.4333,26.4,60.28,53,61,5.1,1651332228
Karratha,AU,-20.7377,116.8463,78.71,44,85,15.68,1651332228
Tarauacá,BR,-8.1614,-70.7656,85.39,65,97,0.45,1651332229
Vila Franca do Campo,PT,37.7167,-25.4333,66.61,70,2,8.34,1651332229
Santiago,CL,-33.4569,-70.6483,71.29,48,0,3.44,1651332103
Kamenka,RU,51.3223,42.7678,53.94,45,98,7.36,1651332230
Laas,IT,46.6166,10.7002,54.36,98,100,4.29,1651332230
Carballo,ES,43.213,-8.691,78.22,73,10,5.32,1651332230
Northam,GB,51.0333,-4.2167,55.65,59,100,4.43,1651332231
Inongo,CD,-1.95,18.2667,75.54,81,100,3.13,1651332231
Santo Antônio do Içá,BR,-3.1022,-67.9397,85.26,64,92,2.71,1651332232
Sechura,PE,-5.5569,-80.8222,73.62,65,99,11.34,1651332232
Luanda,AO,-8.8368,13.2343,82.4,74,20,8.05,1651332094
Banda Aceh,ID,5.5577,95.3222,82.42,79,100,6.35,1651332233
Walajapet,IN,12.9333,79.3833,89.22,56,54,11.41,1651332233
Farafangana,MG,-22.8167,47.8333,72.88,84,0,4.16,1651332234
Zhezkazgan,KZ,47.8043,67.7144,71.58,37,0,4.47,1651332234
Mogadishu,SO,2.0371,45.3438,84.07,73,4,14.56,1651332235
Peniche,PT,39.3558,-9.3811,79.09,60,8,12.41,1651332235
Powell River,CA,49.8496,-124.5361,49.08,93,100,0.0,1651332235
Hambantota,LK,6.1241,81.1185,82.76,81,85,15.26,1651332236
Charleston,US,32.7766,-79.9309,78.03,59,0,14.97,1651331974
Mercedes,AR,-34.6515,-59.4307,56.64,58,100,4.34,1651332236
Chokurdakh,RU,70.6333,147.9167,6.96,96,33,7.05,1651332237
Colesville,US,39.0757,-77.0019,62.06,27,0,5.75,1651332237
Muslyumovo,RU,55.3033,53.1947,49.15,46,50,5.28,1651332238
Manicoré,BR,-5.8092,-61.3003,87.71,60,61,3.22,1651332238
San Jose,US,37.3394,-121.895,60.44,69,20,3.0,1651331986
Lompoc,US,34.6391,-120.4579,67.93,84,0,20.0,1651331969
Bodden Town,KY,19.2833,-81.25,84.97,68,20,11.5,1651332239
Mõisaküla,EE,58.0922,25.1864,45.75,46,52,9.15,1651332239
Evensk,RU,61.95,159.2333,30.16,72,28,9.26,1651332240
São Félix do Xingu,BR,-6.6447,-51.995,82.11,78,77,2.86,1651332240
Pskov,RU,57.8136,28.3496,49.91,32,0,6.71,1651332241
Phalombe,MW,-15.8064,35.6507,67.37,78,39,4.52,1651332241
Springbok,ZA,-29.6643,17.8865,70.07,17,0,8.61,1651332242
Sistranda,NO,63.7256,8.834,44.56,74,96,17.72,1651332138
Nogliki,RU,51.8333,143.1667,30.76,98,100,9.71,1651332242
Avera,US,33.194,-82.5271,76.55,56,87,7.36,1651332243
Kondinskoye,RU,59.6481,67.41,36.72,48,51,1.54,1651332243
Vila Viçosa,PT,38.7777,-7.4179,83.68,32,1,5.5,1651332244
College,US,64.8569,-147.8028,36.59,76,40,5.75,1651332148
Nishihara,JP,26.1842,127.7558,70.88,73,100,8.05,1651332244
Flinders,AU,-34.5833,150.8552,58.37,72,25,3.0,1651332245
Zhaotong,CN,27.3167,103.7167,43.72,90,100,7.92,1651332245
Gweta,BW,-20.1833,25.2333,82.04,24,7,7.94,1651332246
Coyhaique,CL,-45.5752,-72.0662,47.01,81,75,6.91,1651332246
Ang Thong,TH,14.6167,100.3667,89.15,64,91,10.36,1651332247
Ceyhan,TR,37.0247,35.8175,84.04,43,70,8.46,1651332247
Dolores Hidalgo Cuna de la Independencia Nacional,MX,21.1561,-100.9308,70.86,13,0,3.04,1651331990
Martinez,US,38.0194,-122.1341,63.07,72,0,5.75,1651332100
Artyom,AZ,40.4723,50.333,60.94,86,76,21.0,1651332248
Ulfborg,DK,56.2673,8.3217,59.36,60,12,9.22,1651332248
Oranjestad,AW,12.524,-70.027,87.75,70,40,24.16,1651332242
Mount Gambier,AU,-37.8333,140.7667,55.31,94,100,11.5,1651332249
Salto del Guairá,PY,-24.0625,-54.3069,72.66,81,96,10.25,1651332249
Narsaq,GL,60.9167,-46.05,52.02,56,40,4.25,1651332250
Akureyri,IS,65.6835,-18.0878,57.13,30,0,17.27,1651332250
Hirara,JP,24.8,125.2833,76.39,83,100,8.84,1651332251
La Playa,PR,18.2875,-67.1869,82.02,87,100,1.99,1651332251
Yeppoon,AU,-23.1333,150.7333,67.78,89,58,10.18,1651332252
Eirunepé,BR,-6.6603,-69.8736,85.75,63,94,1.36,1651332252
Lyubashivka,UA,47.8372,30.2598,56.57,57,85,3.6,1651332253
Poum,NC,-20.2333,164.0167,76.06,76,4,8.12,1651332253
Lębork,PL,54.5392,17.7501,59.92,54,100,3.56,1651332155
Pavlogradka,RU,54.2024,73.5592,55.62,50,100,20.27,1651332254
Vilyuysk,RU,63.7553,121.6247,36.05,81,100,13.78,1651332254
Bilibino,RU,68.0546,166.4372,-3.53,100,85,4.56,1651332255
Kloulklubed,PW,7.0419,134.2556,73.9,79,64,5.75,1651332255
Saint Augustine,US,29.8947,-81.3145,81.05,63,40,13.8,1651332256
Saint-Gabriel,CA,46.3001,-73.3824,50.41,44,38,8.97,1651332256
Manono,CD,-7.3,27.4167,82.54,66,79,3.44,1651332257
Kawhia,NZ,-38.0651,174.8183,53.51,89,12,5.95,1651332257
Barra do Garças,BR,-15.89,-52.2567,90.18,40,0,6.91,1651332258
Wonogiri,ID,-7.8144,110.9259,77.22,88,100,2.73,1651332259
Hamilton,US,39.1834,-84.5333,65.21,77,100,11.5,1651332209
Itainópolis,BR,-7.4469,-41.4783,94.91,29,100,6.04,1651332259
Katsuyama,JP,36.0617,136.501,46.76,84,100,7.52,1651332101
General Pico,AR,-35.6566,-63.7568,60.19,33,29,11.86,1651332261
Aswān,EG,24.0934,32.907,105.71,6,25,14.32,1651332262
Visnes,NO,59.3556,5.2242,50.38,71,0,18.41,1651332262
Minggang,CN,32.4586,114.0486,53.89,53,99,7.02,1651332264
Balyqshy,KZ,47.0667,51.8667,60.8,63,0,20.13,1651332264
Berlevåg,NO,70.8578,29.0864,26.4,62,100,17.45,1651332237
Kastamonu Province,TR,41.5,33.6667,50.76,87,100,11.25,1651332265
Acapulco de Juárez,MX,16.8634,-99.8901,82.22,69,0,5.75,1651332014
Port Lincoln,AU,-34.7333,135.8667,59.13,77,2,7.76,1651332266
Pitkyaranta,RU,61.5734,31.4792,38.79,68,100,14.99,1651332266
Djibouti,DJ,11.5,42.5,84.76,47,44,11.92,1651332267
Yumen,CN,40.2833,97.2,50.81,17,4,6.08,1651331989
Samarai,PG,-10.6167,150.6667,80.8,79,47,5.73,1651332268
Motygino,RU,58.1831,94.7592,50.07,97,98,4.18,1651332268
Srednekolymsk,RU,67.45,153.6833,2.68,97,51,4.94,1651332269
Guerrero Negro,MX,27.9769,-114.0611,61.05,75,55,11.81,1651332169
The Pas,CA,53.8251,-101.2541,39.22,81,0,3.44,1651332263
Faya,SA,18.3851,42.4509,71.71,38,12,5.88,1651332270
Chara,RU,56.9064,118.2631,34.59,77,100,3.04,1651332270
Alamogordo,US,32.8995,-105.9603,73.06,10,0,12.66,1651332271
Chifeng,CN,42.2683,118.9636,46.0,20,73,7.65,1651332272
Tabou,CI,4.423,-7.3528,85.21,67,98,7.43,1651332272
Timmins,CA,48.4669,-81.3331,51.62,25,20,6.91,1651332273
Alta Floresta,BR,-9.8756,-56.0861,94.82,49,20,9.22,1651332274
Joshīmath,IN,30.5667,79.5667,61.09,80,100,5.3,1651332274
Plettenberg Bay,ZA,-34.0527,23.3716,62.51,71,2,9.01,1651332275
Verkhoyansk,RU,67.5447,133.385,10.56,90,10,5.1,1651332276
Homestead,US,25.4687,-80.4776,83.01,78,75,5.75,1651332162
Salalah,OM,17.0151,54.0924,86.09,84,75,6.91,1651332276
Ryl'sk,RU,51.5655,34.6822,50.61,62,87,8.46,1651332277
Pindobaçu,BR,-10.7417,-40.3608,85.35,44,100,11.1,1651332277
Pākāla,IN,13.4667,79.1167,90.01,46,98,10.11,1651332278
Semey,KZ,50.4111,80.2275,66.76,26,94,9.33,1651332279
Lucea,JM,18.451,-78.1736,84.85,65,5,8.23,1651332279
Tomatlán,MX,19.9333,-105.25,79.43,30,7,1.86,1651332280
Johi,PK,26.6921,67.6133,106.3,12,3,13.51,1651332281
Barcelos,PT,41.5388,-8.6151,78.91,48,8,8.34,1651332281
Panlaitan,PH,12.1191,119.8486,83.41,75,100,7.7,1651332203
Prince Rupert,CA,54.3161,-130.3201,44.69,81,0,3.44,1651332134
Utete,TZ,-7.986,38.758,77.61,83,91,5.03,1651332282
North Bend,US,43.4065,-124.2243,51.24,96,100,6.91,1651332283
West Wendover,US,40.7391,-114.0733,45.61,42,0,4.61,1651332002
Talā,EG,30.6803,30.9429,80.2,29,0,18.77,1651332284
Pointe Michel,DM,15.25,-61.3833,86.29,82,50,14.5,1651332284
Keti Bandar,PK,24.1447,67.4497,84.96,74,0,21.07,1651332248
Itarema,BR,-2.9248,-39.9167,82.85,76,63,10.02,1651332285
Fortuna,US,40.5982,-124.1573,54.09,95,75,5.01,1651332285
Grindavik,IS,63.8424,-22.4338,45.07,87,100,9.22,1651332285
Megion,RU,61.0296,76.1136,32.02,69,14,3.91,1651332286
San Cristobal,VE,7.7669,-72.225,80.78,78,100,7.09,1651332173
Bentley,GB,53.5333,-1.15,65.5,42,0,14.97,1651332286
Cuiluan,CN,47.72,128.648,38.46,97,100,1.52,1651332287
Provincia di Verona,IT,45.4167,11.0333,73.4,32,75,4.61,1651332287
Okha,RU,53.5739,142.9478,29.8,97,100,6.64,1651332288
Āsind,IN,25.7333,74.3333,92.98,19,0,2.64,1651332288
Laguna,US,38.421,-121.4238,64.09,69,0,4.61,1651332289
Āzādshahr,IR,34.7909,48.5707,63.09,45,40,11.5,1651332289
Hervey Bay,AU,-25.2986,152.8535,68.02,94,62,7.0,1651332126
Leh,IN,34.1667,77.5833,45.81,59,82,3.56,1651332290
Namtsy,RU,62.7161,129.6658,19.0,94,26,3.38,1651332290
Nokaneng,BW,-19.6667,22.2667,82.15,27,37,5.28,1651332291
Piquete,BR,-22.6136,-45.1761,70.25,98,100,1.79,1651332291
Aginskoye,RU,51.1,114.53,39.27,93,90,9.6,1651332292
Pingliang,CN,35.5392,106.6861,46.06,25,100,4.38,1651332292
Turbat,PK,26.0023,63.044,99.16,22,0,26.57,1651332292
Abonnema,NG,4.7084,6.7931,87.62,59,100,9.82,1651332293
Verāval,IN,20.9,70.3667,83.79,82,0,9.13,1651332293
Darhan,MN,49.4867,105.9228,53.67,44,69,2.91,1651332294
Hammerum,DK,56.1336,9.0612,58.91,41,40,11.5,1651332294
Coari,BR,-4.085,-63.1414,74.55,96,100,1.45,1651332295
Quryq,KZ,43.2,51.65,68.83,52,57,15.79,1651332295
Kāvali,IN,14.9167,79.9833,84.78,74,1,15.12,1651332296
Imbituba,BR,-28.24,-48.6703,68.86,61,16,10.63,1651332296
Las Palmas,ES,28.4204,-14.0131,68.79,73,20,14.97,1651332296
Letterkenny,IE,54.95,-7.7333,53.49,93,100,14.18,1651332297
Erenhot,CN,43.6475,111.9767,50.94,25,77,14.45,1651332297
Coffeyville,US,37.0373,-95.6164,66.9,61,0,18.41,1651332289
Dāmghān,IR,36.1683,54.348,64.53,56,100,5.01,1651332298
Scarborough,GB,54.2797,-0.4044,63.97,61,100,3.0,1651332029
Milas,TR,37.3164,27.7839,69.15,60,75,8.05,1651332298
Vao,NC,-22.6667,167.4833,74.14,81,100,21.21,1651332299
Benjamin Constant,BR,-4.3831,-70.0311,80.73,78,40,4.61,1651332299
Minas,UY,-34.3759,-55.2377,56.68,60,96,5.41,1651332300
Novy Urengoy,RU,66.0833,76.6333,22.62,85,93,12.03,1651332300
Puerto Ayacucho,VE,5.6639,-67.6236,76.62,90,100,5.32,1651332301
Alyangula,AU,-13.8483,136.4192,73.27,100,73,0.0,1651332301
Ondangwa,NA,-17.9167,15.95,83.91,25,25,6.8,1651332302
Timizart,DZ,36.8,4.2667,63.73,51,0,7.14,1651332302
Richards Bay,ZA,-28.783,32.0377,69.17,72,92,14.03,1651332303
Melenki,RU,55.3343,41.6295,43.56,43,93,9.04,1651332304
Bahía Blanca,AR,-38.7196,-62.2724,56.91,32,10,10.38,1651332184
Vostok,RU,46.4856,135.8833,36.16,95,100,1.92,1651332304
Bāglung,NP,28.2719,83.5898,68.56,64,100,3.2,1651332305
Marabu,MY,4.4148,114.0089,77.14,94,20,4.61,1651332305
Khātra,IN,22.9833,86.85,88.27,35,37,9.28,1651332306
Cockburn Town,TC,21.4612,-71.1419,76.73,74,100,18.72,1651332306
Mae Hong Son,TH,19.3003,97.9685,73.8,86,84,1.83,1651332307
Bowen,AU,-20.0167,148.2333,70.41,91,2,9.06,1651332307
São João da Barra,BR,-21.6403,-41.0511,82.49,63,11,2.21,1651332082
Peruíbe,BR,-24.32,-46.9983,70.88,87,100,4.83,1651332308
Qujing,CN,25.4833,103.7833,56.71,78,99,11.32,1651332308
Salò,IT,45.6086,10.531,72.32,50,99,3.44,1651332309
Kalabo,ZM,-14.97,22.6814,79.79,33,0,6.55,1651332309
Rome,US,43.2128,-75.4557,54.95,34,0,5.99,1651332180
Leshukonskoye,RU,64.8989,45.7622,32.13,72,100,6.98,1651332310
Dukat,RU,62.55,155.55,8.17,99,100,2.1,1651332310
Weyburn,CA,49.6668,-103.8511,48.42,61,100,12.66,1651332311
Ostrovnoy,RU,68.0531,39.5131,27.54,71,84,12.66,1651332311
Sampit,ID,-2.5333,112.95,75.31,97,100,1.99,1651332312
Coahuayana Viejo,MX,18.7333,-103.6833,82.69,33,1,2.59,1651332312
San Vicente,AR,-26.6167,-54.1333,75.79,65,81,5.95,1651332313
Buxton,GB,53.2574,-1.9098,59.25,56,100,4.0,1651332031
Bayir,TR,37.2687,28.2167,64.92,46,97,8.95,1651332313
Câmara de Lobos,PT,32.6333,-16.9667,77.72,58,20,17.27,1651332314
Kizema,RU,61.113,44.8302,37.4,47,91,4.79,1651332314
Löbau,DE,51.1,14.6667,64.45,43,100,7.52,1651332315
River Falls,US,44.8614,-92.6238,50.09,83,100,20.56,1651332035
Zarand,IR,30.8127,56.564,77.49,22,41,24.54,1651332315
Sambava,MG,-14.2667,50.1667,77.92,83,6,11.81,1651332316
San Estanislao,CO,10.3983,-75.1511,91.29,61,100,7.02,1651332316
Sandwick,GB,60.0,-1.25,44.42,87,75,10.36,1651332317
Marzuq,YE,14.4,46.4667,82.33,46,22,13.06,1651332317
Khovu-Aksy,RU,51.1333,93.6,48.56,37,97,6.4,1651332318
Burgeo,CA,47.6167,-57.6152,43.84,82,99,2.91,1651332258
Garoowe,SO,8.4054,48.4845,93.51,28,28,4.16,1651332318
Aitape,PG,-3.1374,142.3475,78.64,87,100,5.26,1651332194
Strezhevoy,RU,60.7333,77.5889,27.52,76,17,4.76,1651332319
Severomuysk,RU,56.1481,113.4267,25.61,97,99,5.19,1651332319
Shilovo,RU,54.3204,40.874,44.91,50,91,10.89,1651332320
Shenzhen,CN,22.5455,114.0683,79.07,92,100,7.14,1651331878
San José del Guaviare,CO,2.5729,-72.6459,71.8,98,100,2.01,1651332320
Neiafu,TO,-18.65,-173.9833,77.68,94,75,0.0,1651332321
Qarqīn,AF,37.4185,66.0436,92.53,18,47,5.32,1651332321
Sterling,US,39.0062,-77.4286,62.42,28,20,5.75,1651332077
Nuuk,GL,64.1835,-51.7216,23.61,63,40,18.41,1651332322
Belyy Yar,RU,53.6039,91.3903,62.49,36,0,2.24,1651332323
Mikhaylovka,RU,50.06,43.2379,52.79,62,100,6.11,1651332323
Amahai,ID,-3.3333,128.9167,80.31,82,86,3.02,1651332323
Sumenep,ID,-7.0167,113.8667,81.0,85,100,8.79,1651332324
Zhangye,CN,38.9342,100.4517,49.01,45,98,2.53,1651332324
Paracelis,PH,17.2667,121.4667,75.92,85,96,4.63,1651332325
Turan,VN,16.0678,108.2208,80.58,83,40,1.14,1651332325
Flagstaff,US,35.1981,-111.6513,60.46,22,0,12.66,1651332236
Kailua,US,21.4022,-157.7394,75.18,78,40,10.36,1651332316
Vardø,NO,70.3705,31.1107,30.02,64,100,16.58,1651332326
Lyuban',BY,52.7985,28.0048,53.89,41,88,6.02,1651332326
Ambilobe,MG,-13.2,49.05,76.39,89,42,1.07,1651332327
Kinarut,MY,5.8231,116.0466,75.22,88,20,2.3,1651332327
Gouyave,GD,12.1646,-61.7296,83.17,79,20,21.85,1651332328
Mindelo,CV,16.8901,-24.9804,76.55,53,40,28.77,1651332328
Alugan,PH,12.2188,125.4808,80.44,84,99,8.32,1651332329
La Orilla,MX,17.9833,-102.2333,80.11,53,1,3.13,1651332329
Tenamaxtlán,MX,20.2167,-104.1667,74.01,8,5,2.39,1651332330
Mweka,CD,-4.85,21.5667,82.99,61,86,2.51,1651332330
Auki,SB,-8.7676,160.7034,77.85,85,100,2.06,1651332330
Dauphin,CA,51.1494,-100.0502,39.34,75,20,4.61,1651332331
Beyneu,KZ,45.3167,55.2,67.12,70,100,12.21,1651332331
Tilichiki,RU,60.4667,166.1,18.9,95,39,8.25,1651332332
Sosnovoborsk,RU,56.1325,93.3589,57.61,74,51,6.22,1651332332
Altay,CN,47.8667,88.1167,53.49,34,78,11.16,1651332333
Santa Maria,BR,-29.6842,-53.8069,63.7,68,0,12.66,1651332333
Vaitape,PF,-16.5167,-151.75,80.19,75,16,16.82,1651332334
Imeni Poliny Osipenko,RU,52.4201,136.4853,27.43,90,100,4.72,1651332334
Suba,PH,10.8438,121.0102,84.25,75,100,5.12,1651332335
Salto de Pirapora,BR,-23.6489,-47.5733,67.3,83,98,9.95,1651332335
Lahaina,US,20.8783,-156.6825,73.81,88,100,10.02,1651332065
Hutang,CN,31.5333,119.4833,53.98,92,100,3.89,1651332336
Karasjok,NO,69.4719,25.5112,29.05,79,99,13.35,1651332336
Pangnirtung,CA,66.1451,-65.7125,17.6,67,100,2.3,1651332336
Kalmunai,LK,7.4167,81.8167,83.16,78,9,7.99,1651332337
Kindu,CD,-2.95,25.95,79.56,73,93,3.0,1651332337
Kuching,MY,1.55,110.3333,75.42,100,40,4.61,1651332338
Machacamarca,BO,-18.1667,-67.0333,58.98,45,3,7.18,1651332338
Jinchang,CN,38.4953,102.1739,49.03,24,98,4.97,1651332339
Codrington,AU,-38.2667,141.9667,53.83,88,37,12.8,1651332339
Deputatsky,RU,69.3,139.9,3.65,88,35,3.8,1651332340
Brandon,US,27.9378,-82.2859,82.29,78,75,11.5,1651332340
Darnah,LY,32.767,22.6367,65.53,64,64,13.29,1651332341
Biltine,TD,14.5333,20.9167,107.37,5,100,7.96,1651332341
Padang,ID,-0.9492,100.3543,78.85,86,100,2.35,1651332215
Xining,CN,36.6167,101.7667,37.35,61,100,9.42,1651332342
Blairmore,CA,49.6,-114.4353,41.52,64,44,1.14,1651332342
Brodokalmak,RU,55.5748,62.082,49.1,42,100,6.17,1651332342
Hay River,CA,60.8156,-115.7999,26.58,74,20,3.44,1651332287
Shimoda,JP,34.6667,138.95,54.1,66,99,8.99,1651332343
Tucumcari,US,35.1717,-103.725,60.94,20,0,5.75,1651332247
Pochutla,MX,15.7432,-96.4661,85.82,50,59,3.44,1651332344
Iseyin,NG,7.9667,3.6,94.51,37,59,5.48,1651332344
Gladstone,AU,-23.85,151.25,69.78,88,60,4.61,1651332344
Sarandi,BR,-23.4436,-51.8739,78.35,61,0,8.05,1651332345
Kramat,ID,-8.1311,113.4499,75.67,91,99,2.46,1651332345
